location_id,dim_store_id,loc_stateabbrv,loc_city2,loc_city,loc_zipcode,loc_lat,loc_long,location_type
75,1277,AL,Satsuma,SATSUMA,36572,30.8728848,-88.046516,is_bluebook
76,1032,AL,Tuscaloosa,TUSCALOOSA,35405,33.173226,-87.479251,is_bluebook
302,1909,AL,Theodore,THEODORE,36582,30.558803,-88.2053872,is_bluebook
369,2230,AL,Birmingham,BIRMINGHAM,35204,33.5291994,-86.8514849,is_dealer
441,606,AL,Priceville,PRICEVILLE,35603,34.5380156,-86.9109078,is_bluebook
497,1552,AL,Lincoln,LINCOLN,35096,33.593045,-86.159239,is_bluebook
601,197,AL,Mccalla,MCCALLA,35111,33.3216469,-87.047254,is_bluebook
602,1153,AL,Birmingham,BIRMINGHAM,35207,33.5620912,-86.8307449,is_bluebook
603,2297,AL,Dothan,DOTHAN,36301,31.191815,-85.3998802,is_bluebook
604,142,AL,Hope Hull,HOPE HULL,36043,32.1941247,-86.4202204,is_bluebook
1549,2845,AL,Lincoln,LINCOLN,35096,33.5938951,-86.1216189,is_bluebook
1550,2844,AL,Good Hope,GOOD HOPE,35055,34.1170475,-86.8640576,is_bluebook
4555,2869,AL,Cottondale,COTTONDALE,35453,33.1787975,-87.4460379,is_bluebook
118,418,AR,Benton,BENTON,72019,34.6083708,-92.5334365,is_bluebook
145,666,AR,Springdale,SPRINGDALE,72762,36.1758475,-94.1931657,is_bluebook
332,604,AR,North Little Rock,NORTH LITTLE ROCK,72117,34.7813642,-92.1281619,is_bluebook
429,1340,AR,West Memphis,WEST MEMPHIS,72301,35.1575969,-90.1372612,is_bluebook
430,164,AR,Russellville,RUSSELLVILLE,72802,35.2802876,-93.0920588,is_bluebook
492,2241,AR,Caddo Valley,CADDO VALLEY,71923,34.1872919,-93.069524,is_bluebook
605,56,AR,Russellville,RUSSELLVILLE,72801,35.2837042,-93.0901357,is_bluebook
606,956,AR,Texarkana,TEXARKANA,71854,33.5136982,-93.9481058,is_bluebook
607,1764,AR,West Memphis,WEST MEMPHIS,72301,35.1543348,-90.1432868,is_bluebook
180,2077,AZ,Bellemont,BELLEMONT,86015,35.2385962,-111.822046,is_bluebook
211,711,AZ,Lake Havasu City,LAKE HAVASU CITY,86404,34.7284136,-114.3150134,is_bluebook
279,2108,AZ,Rio Rico,RIO RICO,85648,31.4308905,-110.9621427,is_bluebook
328,2207,AZ,Quartzsite,QUARTZSITE,85359,33.6615278,-114.2368672,is_bluebook
458,79,AZ,Eloy,ELOY,85231,32.7385209,-111.5493189,is_bluebook
459,2236,AZ,Avondale,AVONDALE,85323,33.4567713,-112.2735726,is_bluebook
505,1169,AZ,Yuma,YUMA,85367,32.6665442,-114.3927258,is_dealer
593,165,AZ,Tucson,TUCSON,85756,32.1258021,-110.8741394,is_bluebook
608,691,AZ,Ehrenberg,EHRENBERG,85334,33.602133,-114.523475,is_bluebook
609,1560,AZ,Eloy,ELOY,85131,32.7325178,-111.5493916,is_bluebook
610,1880,AZ,Kingman,KINGMAN,86401,35.219685,-114.0075362,is_bluebook
611,1968,AZ,Phoenix,PHOENIX,85043,33.4611674,-112.2058875,is_bluebook
612,2109,AZ,Winslow,WINSLOW,86047,35.0156752,-110.6735618,is_bluebook
1175,3190,AZ,Cordes Lake,CORDES LAKE,86333,34.3274491,-112.1181474,is_bluebook
1178,3191,AZ,Tucson,TUCSON,85747,32.0841199,-110.8035087,is_bluebook
1179,3194,AZ,Nogales,NOGALES,85621,31.338744,-110.966955,is_licensee
1180,3192,AZ,Tonopah,TONOPAH,85354,33.494776,-112.9381687,is_bluebook
1185,3234,AZ,Littlefield,LITTLEFIELD,86423,36.897027,-113.91019,is_dealer
1192,3206,AZ,Wittmann,WITTMANN,85361,33.7806588,-112.5339872,is_licensee
1193,3205,AZ,Wikieup,WIKIEUP,85360,34.699416,-113.61028,is_licensee
1194,3204,AZ,Phoenix,PHOENIX,85040,33.414853,-111.995815,is_licensee
1212,3282,AZ,Salome,SALOME,85348,33.6336488,-113.7686316,is_bluebook
1213,3915,AZ,Yucca,YUCCA,86438,34.8633322,-114.1416347,is_bluebook_one9
1215,3290,AZ,Salome,SALOME,85348,33.6281109,-113.769208,is_bluebook_one9
1216,3288,AZ,Eloy,ELOY,85131,32.8118763,-111.6718017,is_bluebook_one9
1234,3481,AZ,White Hills,WHITE HILLS,86445,35.7000654,-114.4761607,is_licensee
1235,3479,AZ,Tacna,TACNA,85352,32.6911042,-113.9535977,is_dealer
1243,3564,AZ,Gila Bend,GILA BEND,85337,32.9296456,-112.6729869,is_bluebook
1244,3480,AZ,Gila Bend,GILA BEND,85337,32.9499817,-112.7054826,is_dealer
1258,3585,AZ,Quartzsite,QUARTZSITE,85346,33.6702091,-114.1984168,is_bluebook_one9
1264,3531,AZ,Eloy,ELOY,85131,32.7780664,-111.6194345,is_bluebook_one9
1269,3527,AZ,San Simon,SAN SIMON,85632,32.2634956,-109.2281314,is_dealer
1270,3551,AZ,Holbrook,HOLBROOK,86025,34.974706,-110.090535,is_one9_dealer
1281,3556,AZ,Page,PAGE,86040,36.9954561,-111.5643671,is_licensee
137,1808,CA,Weed,WEED,96094,41.39916,-122.376149,is_bluebook
154,1375,CA,Lost Hills,LOST HILLS,93249,35.615128,-119.6587667,is_bluebook
168,966,CA,Dunnigan,DUNNIGAN,95937,38.862003,-121.950277,is_bluebook
200,713,CA,Boron,BORON,93516,34.9919593,-117.5420292,is_bluebook
237,1121,CA,Salinas,SALINAS,93901,36.6651443,-121.6302039,is_bluebook
282,1856,CA,Barstow,BARSTOW,92311,34.8548859,-117.0874527,is_bluebook
307,1173,CA,North Palm Springs,NORTH PALM SPRINGS,92262,33.9028838,-116.5458714,is_bluebook
343,1184,CA,San Diego,SAN DIEGO,92154,32.5683957,-116.9532088,is_bluebook
365,228,CA,Madera,MADERA,93637,37.0187914,-120.1327669,is_bluebook
372,1535,CA,Castaic,CASTAIC,91384,34.4945572,-118.619954,is_bluebook
381,996,CA,Hesperia,HESPERIA,92344,34.4081972,-117.3985518,is_bluebook
613,720,CA,Bakersfield,BAKERSFIELD,93308,35.5312878,-119.1879859,is_bluebook
614,185,CA,Barstow,BARSTOW,92311,34.8540003,-117.0819825,is_bluebook
616,1757,CA,Lebec,LEBEC,93243,34.8165436,-118.8874256,is_bluebook
617,545,CA,Lodi,LODI,95242,38.1178826,-121.3940681,is_bluebook
618,2172,CA,Ripon,RIPON,95366,37.7557318,-121.1442262,is_bluebook
765,2244,CA,Thousand Palms,THOUSAND PALMS,92276,33.8178214,-116.4033895,is_bluebook
879,1877,CA,Sacramento,SACRAMENTO,95833,38.6168366,-121.5371091,is_dealer
999,1258,CA,Bakersfield,BAKERSFIELD,93308,35.4283,-119.0719,unkn
1009,3172,CA,Mira Loma,MIRA LOMA,91752,34.014843,-117.525712,is_bluebook
1017,2797,CA,Lathrop,LATHROP,95330,37.8561505,-121.2764225,is_bluebook
1019,2649,CA,Orland,ORLAND,95963,39.7505393,-122.2077371,is_bluebook
1071,3150,CA,Tulare,TULARE,93274,36.180234,-119.333424,is_bluebook
1080,2816,CA,Patterson,PATTERSON,95363,37.4656111,-121.1649537,is_bluebook
1094,3100,CA,Tehachapi,TEHACHAPI,93561,35.1270371,-118.4164602,is_bluebook
1132,3170,CA,Brawley,BRAWLEY,92227,32.9786241,-115.5038667,is_bluebook
1177,3492,CA,Fontana,FONTANA,92337,34.0646338,-117.4929382,is_bluebook
1260,3500,CA,Bakersfield,BAKERSFIELD,93311,35.2681788,-119.2292909,is_dealer
1271,3550,CA,Thermal,THERMAL,92274,33.2788476,-115.9656157,is_dealer
1272,3528,CA,Yermo,YERMO,92398,34.9041017,-116.8872892,is_dealer
1275,3539,CA,Madera,MADERA,93637,36.9239052,-120.024508,is_bluebook_one9
1277,3553,CA,Avenal,AVENAL,93234,36.0751267,-120.1040371,is_bluebook_one9
1302,3680,CA,Bakersfield,BAKERSFIELD,93314,35.3542633,-119.3313416,is_bluebook_one9
1343,4048,CA,Yreka,YREKA,96097,41.7376105,-122.6237428,is_one9_dealer
592,1510,CO,Grand Junction,GRAND JUNCTION,81505,39.112563,-108.6475647,is_bluebook
619,1229,CO,Aurora,AURORA,80011,39.7628758,-104.7928444,is_bluebook
621,2086,CO,Limon,LIMON,80828,39.2752094,-103.7097102,is_bluebook
781,1661,CO,Steamboat Springs,STEAMBOAT SPRINGS,80487,40.4926242,-106.8517169,is_licensee
1052,3090,CO,Lamar,LAMAR,81052,38.0967023,-102.6189205,is_dealer
1110,3145,CO,Monument,MONUMENT,80921,39.0916586,-104.872758,is_bluebook
255,1555,CT,Milford,MILFORD,06460,41.2362834,-73.0220423,is_bluebook
882,1635,CT,North Stonington,NORTH STONINGTON,06359,41.4419734,-71.8001925,is_dealer
2404,2461,CT,Bridgeport,BRIDGEPORT,06606,41.2008481,-73.1916435,is_dealer
87,1934,FL,Baldwin,BALDWIN,32234,30.2837884,-81.9840583,is_bluebook
88,57,FL,Cocoa,COCOA,32926,28.3590475,-80.7924845,is_bluebook
89,1025,FL,Ellenton,ELLENTON,34222,27.5285359,-82.5122488,is_bluebook
90,1718,FL,Fort Pierce,FORT PIERCE,34945,27.4141408,-80.4001262,is_bluebook
91,2242,FL,Jacksonville,JACKSONVILLE,32259,30.065817,-81.4945761,is_bluebook
92,2039,FL,Ocala,OCALA,34482,29.2679327,-82.191552,is_bluebook
94,1690,FL,Punta Gorda,PUNTA GORDA,33950,26.8940474,-82.009238,is_bluebook
95,2234,FL,Wildwood,WILDWOOD,34785,28.8739448,-82.0951375,is_bluebook
96,1987,FL,Okeechobee,OKEECHOBEE,34972,27.6988356,-80.9014374,is_bluebook
293,1412,FL,Ocala,OCALA,34473,29.0248271,-82.1591343,is_bluebook
352,1726,FL,Fort Myers,FORT MYERS,33905,26.6551785,-81.8014768,is_bluebook
374,2435,FL,Marianna,MARIANNA,32448,30.7255475,-85.1863279,is_bluebook
424,1528,FL,Ocala,OCALA,34482,29.2656173,-82.189186,is_bluebook
425,1871,FL,Midway,MIDWAY,32343,30.4855081,-84.4213461,is_bluebook
471,1098,FL,Haines City,HAINES CITY,33845,28.1182185,-81.6390835,is_bluebook
500,84,FL,Jasper,JASPER,32052,30.5162908,-83.058748,is_bluebook
622,982,FL,Fort Pierce,FORT PIERCE,34945,27.4487595,-80.3982491,is_bluebook
623,696,FL,Midway,MIDWAY,32343,30.4929003,-84.4296487,is_bluebook
624,163,FL,Dade City,DADE CITY,33576,28.3267997,-82.3217944,is_bluebook
625,1175,FL,Seffner,SEFFNER,33584,28.0097683,-82.3031612,is_bluebook
626,2342,FL,St. Augustine,ST. AUGUSTINE,32086,29.7494799,-81.3445844,is_bluebook
873,1872,FL,Medley,MEDLEY,33178,25.8845869,-80.3654082,is_dealer
874,2100,FL,Miami,MIAMI,33194,25.7603477,-80.4806658,is_dealer
897,2293,FL,Miami Gardens,MIAMI GARDENS,33054,25.9255181,-80.2451135,is_dealer
1046,2660,FL,South Bay,SOUTH BAY,33493,26.66655,-80.7164174,is_bluebook
1047,2667,FL,Jacksonville,JACKSONVILLE,32219,30.371514,-81.764116,is_bluebook
1058,2714,FL,Waldo,WALDO,32694,29.8139838,-82.1688138,is_dealer
1096,3081,FL,Cocoa,COCOA,32926,28.3755855,-80.8020149,is_bluebook
1128,3147,FL,Bartow,BARTOW,33830,27.9168482,-81.7188673,is_bluebook
1149,3164,FL,Jacksonville,JACKSONVILLE,32226,30.4128266,-81.5717463,is_bluebook_one9
4556,2843,FL,Wildwood,WILDWOOD,34785,28.8735763,-82.0905604,is_bluebook
65,1716,GA,Augusta,AUGUSTA,30909,33.4801365,-82.13077,is_bluebook
66,659,GA,Braselton,BRASELTON,30517,34.1194936,-83.7619905,is_bluebook
67,1982,GA,Cartersville,CARTERSVILLE,30120,34.2720688,-84.8077599,is_bluebook
68,2285,GA,Dublin,DUBLIN,31021,32.4903322,-82.9342555,is_bluebook
71,1308,GA,Port Wentworth,PORT WENTWORTH,31407,32.1883088,-81.1950396,is_bluebook
72,68,GA,Savannah,SAVANNAH,31408,32.0721237,-81.1999649,is_bluebook_one9
144,340,GA,Augusta,AUGUSTA,30907,33.5243425,-82.0332981,is_bluebook
192,1379,GA,Tifton,TIFTON,31794,31.4286133,-83.5163078,is_bluebook
254,82,GA,Wildwood,WILDWOOD,30757,34.9785709,-85.4138169,is_bluebook_one9
260,59,GA,Albany,ALBANY,31705,31.5807954,-84.0854824,is_bluebook
267,194,GA,Byron,BYRON,31008,32.612766,-83.744558,is_bluebook
312,237,GA,Tallapoosa,TALLAPOOSA,30176,33.6826011,-85.2628487,is_bluebook
319,1457,GA,Dalton,DALTON,30720,34.6871626,-84.9999995,is_bluebook
331,748,GA,Atlanta,ATLANTA,30316,33.6857553,-84.3146252,is_bluebook
398,1867,GA,Vienna,VIENNA,31092,32.0854223,-83.7600399,is_bluebook
415,1927,GA,Rising Fawn,RISING FAWN,30738,34.7704893,-85.5415701,is_bluebook
416,710,GA,Cordele,CORDELE,31015,31.9594892,-83.7467725,is_bluebook
417,203,GA,Temple,TEMPLE,30179,33.7190125,-85.0291971,is_bluebook
420,1864,GA,Madison,MADISON,30650,33.560694,-83.4783918,is_bluebook
421,62,GA,Dalton,DALTON,30721,34.655739,-84.980382,is_bluebook
422,857,GA,Newnan,NEWNAN,30263,33.3204227,-84.7781678,is_bluebook
575,709,GA,St. Mary'S,ST. MARY'S,31558,30.7598984,-81.6484752,is_bluebook
627,98,GA,Brunswick,BRUNSWICK,31523,31.140854,-81.578249,is_bluebook
628,2224,GA,Carnesville,CARNESVILLE,30521,34.347241,-83.3224337,is_bluebook
630,352,GA,Jackson,JACKSON,30233,33.2076965,-84.0648132,is_bluebook
631,110,GA,Lake Park,LAKE PARK,31636,30.641236,-83.190486,is_bluebook
632,726,GA,Resaca,RESACA,30735,34.5765293,-84.9469843,is_bluebook
633,2314,GA,Union Point,UNION POINT,30669,33.7117695,-83.1229416,is_bluebook
634,1743,GA,Temple,TEMPLE,30179,33.7194157,-85.0251943,is_bluebook
4557,2857,GA,Carnesville,CARNESVILLE,30521,34.39005,-83.2271725,is_bluebook
4558,2854,GA,Calhoun,CALHOUN,30701,34.5588042,-84.9356175,is_bluebook
4559,2867,GA,Villa Rica,VILLA RICA,30180,33.7217417,-84.9031426,is_bluebook
4560,2861,GA,Jackson,JACKSON,30233,33.2099097,-84.0559545,is_bluebook
4561,2837,GA,Valdosta,VALDOSTA,31601,30.7541222,-83.2732666,is_bluebook
4562,2865,GA,Kingsland,KINGSLAND,31548,30.7598756,-81.6557746,is_bluebook
43,2332,IA,Walcott,WALCOTT,52773,41.6195007,-90.7844117,is_bluebook
131,2264,IA,Osceola,OSCEOLA,50213,41.0403982,-93.7956461,is_bluebook
238,204,IA,Percival,PERCIVAL,51648,40.6902707,-95.7924557,is_bluebook
268,1979,IA,Walcott,WALCOTT,52773,41.614436,-90.7821062,is_bluebook
329,525,IA,Council Bluffs,COUNCIL BLUFFS,51501,41.2356048,-95.8783068,is_bluebook
373,814,IA,Des Moines,DES MOINES,50322,41.6310324,-93.780139,is_bluebook
407,468,IA,Clear Lake,CLEAR LAKE,50428,43.1451825,-93.3586441,is_bluebook
495,782,IA,Brooklyn,BROOKLYN,52211,41.6978617,-92.359076,is_bluebook
496,1559,IA,Atalissa,ATALISSA,52720,41.6442515,-91.1498038,is_bluebook_one9
572,1178,IA,Williams,WILLIAMS,50271,42.4701766,-93.5719112,is_bluebook
594,2115,IA,Sioux City,SIOUX CITY,51111,42.4356364,-96.3727518,is_bluebook
636,453,IA,Davenport,DAVENPORT,52806,41.6022968,-90.624858,is_bluebook
637,1425,IA,Evansdale,EVANSDALE,50707,42.4597305,-92.2524782,is_bluebook
893,1338,IA,Avoca,AVOCA,51521,41.4994806,-95.3345156,is_dealer
913,1180,IA,Altoona,ALTOONA,50009,41.660171,-93.499532,is_bluebook
1012,1035,IA,Mt. Pleasant,MT. PLEASANT,52641,40.9819186,-91.5393845,is_bluebook
1092,3093,IA,Cedar Rapids,CEDAR RAPIDS,52404,41.890445,-91.6664078,is_bluebook
350,1798,ID,Mountain Home,MOUNTAIN HOME,83647,43.1417892,-115.6630759,is_bluebook
638,119,ID,Caldwell,CALDWELL,83605,43.6613652,-116.6541118,is_bluebook
639,161,ID,Post Falls,POST FALLS,83854,47.7113712,-116.9970498,is_bluebook
640,1685,ID,Jerome,JEROME,83338,42.6494226,-114.4419809,is_bluebook
641,1795,ID,Mccammon,MCCAMMON,83250,42.6603237,-112.2068793,is_bluebook
777,624,ID,East Boise,EAST BOISE,83705,43.5712263,-116.1895482,is_bluebook
1043,2617,ID,Idaho Falls,IDAHO FALLS,83402,43.439351,-112.1156694,is_bluebook
39,1729,IL,Monee,MONEE,60449,41.4275607,-87.7568136,is_bluebook
165,1970,IL,Effingham,EFFINGHAM,62401,39.1490628,-88.5314365,is_bluebook
171,1845,IL,Oakwood,OAKWOOD,61858,40.1237407,-87.7788392,is_bluebook
236,295,IL,Minooka,MINOOKA,60447,41.460629,-88.2721413,is_bluebook
249,1487,IL,Troy,TROY,62294,38.7318141,-89.9085147,is_bluebook
299,946,IL,Bloomington,BLOOMINGTON,61701,40.4821583,-89.0176345,is_bluebook
313,250,IL,East St. Louis,EAST ST. LOUIS,62201,38.6506929,-90.1311838,is_bluebook
368,1241,IL,Decatur,DECATUR,62521,39.9074209,-88.8956076,is_bluebook
468,55,IL,Gilman,GILMAN,60938,40.7507873,-88.0021172,is_bluebook
473,1708,IL,Channahon,CHANNAHON,60410,41.4573866,-88.1922877,is_bluebook
476,134,IL,Woodhull,WOODHULL,61490,41.1806679,-90.3383216,is_bluebook
482,1240,IL,Mount Vernon,MOUNT VERNON,62864,38.3123175,-88.9608356,is_bluebook
483,2168,IL,Morris,MORRIS,60450,41.3954495,-88.420317,is_bluebook
514,1797,IL,Lincoln,LINCOLN,62656,40.156639,-89.4126133,is_dealer
595,2423,IL,Marion,MARION,62959,37.7400131,-88.9645119,is_bluebook
642,767,IL,Alorton,ALORTON,62207,38.5758319,-90.0982559,is_bluebook
643,100,IL,Effingham,EFFINGHAM,62401,39.133438,-88.566303,is_bluebook
644,776,IL,Lasalle,LASALLE,61301,41.369757,-89.0984808,is_bluebook
645,14,IL,Pontoon Beach,PONTOON BEACH,62040,38.7602528,-90.0656655,is_bluebook
646,510,IL,South Beloit,SOUTH BELOIT,61080,42.4939653,-88.9983056,is_bluebook
889,1577,IL,Mt. Vernon,MT. VERNON,62864,38.3116046,-88.9574589,is_dealer
972,74,IL,Danville,DANVILLE,61834,40.1287,-87.5462,unkn
1024,2668,IL,Joliet,JOLIET,60433,41.4800317,-88.0795798,is_bluebook
1030,2664,IL,Alsip,ALSIP,60803,41.6633529,-87.7009418,is_bluebook
1041,2704,IL,Carol Stream,CAROL STREAM,60188,41.9036193,-88.1227581,is_bluebook
1042,2683,IL,Bridgeview,BRIDGEVIEW,60455,41.754382,-87.7986836,is_bluebook
1114,3092,IL,Bensenville,BENSENVILLE,60106,41.988006,-87.9602606,is_bluebook
1174,3281,IL,Marshall,MARSHALL,62441,39.41904238,-87.69532127,is_bluebook
1181,3493,IL,Rochelle,ROCHELLE,61068,41.935014,-89.018135,is_bluebook
1219,3292,IL,Vandalia,VANDALIA,62471,38.9708677,-89.1358701,is_bluebook
1225,3501,IL,Mascoutah,MASCOUTAH,62258,38.5555922,-89.8061532,is_bluebook
1245,3495,IL,Litchfield,LITCHFIELD,62056,39.1768469,-89.6747818,is_bluebook_one9
1286,3982,IL,Salem,SALEM,62881,38.6255314,-88.9682202,is_one9_dealer
28,1889,IN,Daleville,DALEVILLE,47334,40.1127586,-85.5660344,is_bluebook
29,538,IN,Fremont,FREMONT,46737,41.7441189,-85.0002157,is_bluebook
30,128,IN,Greenfield,GREENFIELD,46140,39.8214088,-85.9163591,is_bluebook
31,2215,IN,Highland,HIGHLAND,46322,41.5673074,-87.4729726,is_bluebook
34,329,IN,Remington,REMINGTON,47977,40.7662925,-87.1240243,is_bluebook
35,1396,IN,South Bend,SOUTH BEND,46628,41.7358822,-86.3362122,is_bluebook
36,575,IN,Valparaiso,VALPARAISO,46383,41.4484319,-87.0106704,is_bluebook
37,1405,IN,Whiteland,WHITELAND,46184,39.551165,-86.0459895,is_bluebook
152,898,IN,Memphis,MEMPHIS,47143,38.4927575,-85.7728111,is_bluebook
198,1223,IN,Plymouth,PLYMOUTH,46563,41.341721,-86.2638022,is_bluebook
242,181,IN,Shelbyville,SHELBYVILLE,46176,39.5833796,-85.8178582,is_bluebook
247,2227,IN,Crawfordsville,CRAWFORDSVILLE,47933,40.0461663,-86.8203995,is_bluebook
271,1099,IN,Gary,GARY,46406,41.5730682,-87.4027975,is_bluebook
297,1168,IN,Terre Haute,TERRE HAUTE,47803,39.433433,-87.3321637,is_bluebook
304,226,IN,New Haven,NEW HAVEN,46774,41.05969,-84.980346,is_bluebook
318,4,IN,Indianapolis,INDIANAPOLIS,46217,39.6975739,-86.1856072,is_bluebook
339,824,IN,Covington,COVINGTON,47932,40.1229786,-87.4506426,is_bluebook_one9
444,1361,IN,Brazil,BRAZIL,47834,39.4515879,-87.1254707,is_bluebook
445,1438,IN,Burns Harbor,BURNS HARBOR,46304,41.6045138,-87.1153584,is_bluebook
446,1136,IN,Daleville,DALEVILLE,47334,40.1150012,-85.5733096,is_bluebook
447,921,IN,Haubstadt,HAUBSTADT,47639,38.174777,-87.548569,is_bluebook
448,1939,IN,Hebron,HEBRON,46341,41.2905349,-87.2948049,is_bluebook
478,2021,IN,Leavenworth,LEAVENWORTH,47137,38.2388685,-86.3617299,is_bluebook
647,1359,IN,Haubstadt,HAUBSTADT,47639,38.1762456,-87.5514844,is_bluebook
649,1401,IN,Indianapolis,INDIANAPOLIS,46217,39.6935031,-86.1909903,is_bluebook
650,568,IN,Lake Station,LAKE STATION,46405,41.5871272,-87.236001,is_bluebook
652,1775,IN,Lebanon,LEBANON,46052,40.0323342,-86.4728363,is_bluebook
653,1409,IN,Hebron,HEBRON,46341,41.287316,-87.2938599,is_bluebook
655,162,IN,Spiceland,SPICELAND,47385,39.8518601,-85.4134935,is_bluebook
656,2,IN,Whiteland,WHITELAND,46184,39.5524096,-86.044397,is_bluebook
719,1626,IN,Gary,GARY,46406,41.5654596,-87.4029508,is_bluebook_one9
721,689,IN,Indianapolis,INDIANAPOLIS,46217,39.6972479,-86.1880194,is_bluebook_one9
731,227,IN,Spiceland,SPICELAND,47385,39.850884,-85.417277,is_bluebook_one9
881,210,IN,Fort Wayne,FORT WAYNE,46808,41.1186559,-85.1835981,is_dealer
962,189,IN,Sellersburg,SELLERSBURG,47172,38.3698588,-85.760176,is_licensee
973,1123,IN,Clarksville,CLARKSVILLE,47129,38.336,-85.7503,unkn
1020,2624,IN,Lake Station,LAKE STATION,46405,41.5883003,-87.2395162,is_bluebook_one9
1086,2805,IN,Marion,MARION,46952,40.621884,-87.4414152,is_bluebook
1117,3097,IN,Rochester,ROCHESTER,46975,41.04724172,-86.21855261,is_bluebook
1294,4287,IN,Vincennes,VINCENNES,47591,38.693389,-87.497495,is_dealer
524,1734,KS,Kansas City,KANSAS CITY,66106,39.0906145,-94.6828301,is_dealer
657,908,KS,Dodge City,DODGE CITY,67801,37.7523612,-99.9802622,is_dealer
658,1497,KS,Emporia,EMPORIA,66801,38.411385,-96.2372603,is_bluebook
659,1870,KS,Salina,SALINA,67401,38.879002,-97.5927942,is_bluebook
903,2019,KS,Salina,SALINA,67401,38.8748131,-97.6098791,is_bluebook
920,819,KS,Colby,COLBY,67701,39.3641765,-101.032123,is_bluebook
1346,4259,KS,Newton,NEWTON,67114,38.0447492,-97.3186004,is_dealer
41,1541,KY,Mount Sterling,MOUNT STERLING,40353,38.086035,-83.898852,is_bluebook
46,1565,KY,Franklin,FRANKLIN,42134,36.7163016,-86.5259227,is_bluebook
47,180,KY,Georgetown,GEORGETOWN,40324,38.2764535,-84.5599061,is_bluebook
48,139,KY,Glendale,GLENDALE,42740,37.5952484,-85.8648001,is_bluebook
49,1896,KY,Oak Grove,OAK GROVE,42262,36.6784288,-87.4048427,is_bluebook
50,221,KY,Sulphur,SULPHUR,40070,38.4543652,-85.2958812,is_bluebook
156,2324,KY,Madisonville,MADISONVILLE,42431,37.2555885,-87.4490724,is_bluebook
231,2159,KY,Corbin,CORBIN,40701,36.9754424,-84.1076353,is_bluebook
240,174,KY,Middlesboro,MIDDLESBORO,40965,36.6434417,-83.7002487,unkn
278,1216,KY,Walton,WALTON,41094,38.9192017,-84.6254054,is_bluebook_one9
321,1211,KY,Walton,WALTON,41094,38.9173407,-84.6325643,is_bluebook
353,1416,KY,Georgetown,GEORGETOWN,40324,38.2758828,-84.5541494,is_bluebook
354,1542,KY,Simpsonville,SIMPSONVILLE,40067,38.2098325,-85.3479602,is_bluebook
356,1911,KY,Shepherdsville,SHEPHERDSVILLE,40165,38.06091,-85.703149,is_bluebook
358,1424,KY,Paducah,PADUCAH,42001,37.0975126,-88.6911423,is_bluebook
392,840,KY,Sonora,SONORA,42776,37.5230725,-85.8825745,is_bluebook
399,389,KY,Lebanon Junction,LEBANON JUNCTION,40150,37.8273064,-85.723974,is_bluebook
437,2058,KY,Williamsburg,WILLIAMSBURG,40769,36.7216926,-84.167453,is_bluebook
438,863,KY,Franklin,FRANKLIN,42134,36.7178197,-86.5251939,is_bluebook
439,2071,KY,Oak Grove,OAK GROVE,42262,36.6922162,-87.4518575,is_bluebook
440,1281,KY,Pendleton,PENDLETON,40055,38.4603337,-85.3019075,is_bluebook
660,360,KY,Catlettsburg,CATLETTSBURG,41129,38.3649573,-82.6965929,is_bluebook
661,994,KY,Franklin,FRANKLIN,42134,36.6625455,-86.5536362,is_bluebook
662,361,KY,Oak Grove,OAK GROVE,42262,36.697261,-87.454911,is_bluebook
663,370,KY,Waddy,WADDY,40076,38.1551176,-85.0646781,is_bluebook
664,2199,KY,Walton,WALTON,41094,38.8576555,-84.6264975,is_bluebook
890,1945,KY,Kuttawa,KUTTAWA,42055,37.0714074,-88.1235453,is_dealer
974,603,KY,Nicholasville,NICHOLASVILLE,40356,37.9154,-84.5606,unkn
1288,3682,KY,Beaver Dam,BEAVER DAM,42320,37.3764829,-86.8270153,is_dealer
79,1949,LA,Denham Springs,DENHAM SPRINGS,70726,30.4518948,-90.9568316,is_bluebook
82,366,LA,Laplace,LAPLACE,70068,30.0854536,-90.4444883,is_bluebook
199,1063,LA,Haughton,HAUGHTON,71037,32.5450172,-93.5163522,is_bluebook
274,1786,LA,Breaux Bridge,BREAUX BRIDGE,70517,30.2939811,-91.9145419,is_bluebook
300,1820,LA,Hammond,HAMMOND,70403,30.477709,-90.4566406,is_bluebook
335,1413,LA,Rayville,RAYVILLE,71269,32.4595728,-91.7590192,is_bluebook
428,1429,LA,West Monroe,WEST MONROE,71292,32.5079327,-92.1926627,is_bluebook
665,902,LA,Greenwood,GREENWOOD,71033,32.4447573,-93.9785106,is_bluebook
989,832,LA,Shreveport,SHREVEPORT,71102,32.4297,-93.7796,unkn
1051,2701,LA,Iowa,IOWA,70647,30.2534169,-93.014522,is_bluebook
1105,3162,LA,Bunkie,BUNKIE,71322,30.7816373,-92.1870933,is_bluebook
1164,3173,LA,St. Rose,ST. ROSE,70087,29.9734469,-90.2991974,is_bluebook
222,76,MA,Sturbridge,STURBRIDGE,01566,42.0669095,-72.1066626,is_bluebook
1084,2796,MA,Devens,DEVENS,01434,42.5487,-71.5931,unkn
150,1042,MD,Hagerstown,HAGERSTOWN,21740,39.633648,-77.807115,is_bluebook
179,1369,MD,Hagerstown,HAGERSTOWN,21740,39.6297868,-77.7829492,is_bluebook
290,1387,MD,Perryville,PERRYVILLE,21903,39.589632,-76.0654798,is_bluebook
408,1579,MD,Grantsville,GRANTSVILLE,21536,39.6923137,-79.1003231,is_bluebook
784,690,MD,Northeast,NORTHEAST,21901,39.6261095,-75.9499097,is_bluebook
875,2400,MD,Elkton,ELKTON,21921,39.6378413,-75.8059351,is_bluebook
17,2283,MI,Battle Creek,BATTLE CREEK,49014,42.3025087,-85.0825527,is_bluebook
21,410,MI,Dexter,DEXTER,48130,42.300875,-83.8754638,is_bluebook
23,72,MI,Ionia,IONIA,48846,42.8829663,-85.0741151,is_bluebook
24,1370,MI,Monroe,MONROE,48162,41.9248207,-83.366125,is_bluebook
26,607,MI,Ottawa Lake,OTTAWA LAKE,49267,41.7986549,-83.694089,is_bluebook
284,1829,MI,Monroe,MONROE,48161,41.9633442,-83.3535312,is_bluebook
296,1841,MI,Dexter,DEXTER,48130,42.295781,-83.878244,is_bluebook
596,192,MI,Smiths Creek,SMITHS CREEK,48074,42.976785,-82.5415508,is_bluebook
666,1639,MI,Benton Harbor,BENTON HARBOR,49022,42.090084,-86.412262,is_bluebook
667,969,MI,Grand Ledge,GRAND LEDGE,48837,42.787503,-84.6783272,is_bluebook
668,1345,MI,Saginaw,SAGINAW,48601,43.4514968,-83.8940815,is_bluebook
895,1821,MI,Woodhaven,WOODHAVEN,48183,42.1362499,-83.239162,is_bluebook
1021,2654,MI,Holland,HOLLAND,49423,42.7407659,-86.0699521,is_bluebook
134,1737,MN,St. Cloud,ST. CLOUD,56301,45.4963821,-94.148913,is_bluebook
576,1419,MN,Northfield,NORTHFIELD,55057,44.4708051,-93.2949389,is_bluebook
581,26,MN,Inver Grove Heights,INVER GROVE HEIGHTS,55077,44.7808327,-93.032886,is_bluebook
590,1290,MN,Alexandria,ALEXANDRIA,56308,45.8615506,-95.4226563,is_bluebook
960,2385,MN,St. Paul,ST. PAUL,55343,44.9575886,-93.187695,is_licensee
961,193,MN,Eagan,EAGAN,55121,44.847858,-93.126694,is_licensee
44,1448,MO,Boonville,BOONVILLE,65233,38.939444,-92.774675,is_bluebook
167,1989,MO,Nevada,NEVADA,64772,37.8355889,-94.324881,is_bluebook
208,616,MO,Pacific,PACIFIC,63069,38.4867298,-90.7584879,is_bluebook
252,1651,MO,Kearney,KEARNEY,64060,39.3683912,-94.3742579,is_bluebook
301,2245,MO,Marston,MARSTON,63866,36.5187756,-89.601757,is_bluebook_one9
317,2154,MO,Joplin,JOPLIN,64804,37.004535,-94.5522378,is_bluebook
385,215,MO,Collins,COLLINS,64738,37.8742866,-93.6209925,is_bluebook
442,54,MO,Hayti,HAYTI,63851,36.227739,-89.726098,is_bluebook
443,1523,MO,Higginsville,HIGGINSVILLE,64037,39.0032265,-93.7344952,is_bluebook
571,847,MO,Charleston,CHARLESTON,63834,36.9222218,-89.3137306,is_bluebook
669,1427,MO,Joplin,JOPLIN,64804,37.0555631,-94.4295916,is_bluebook
671,2358,MO,Matthews,MATTHEWS,63867,36.7606815,-89.5407463,is_bluebook
672,1481,MO,Peculiar,PECULIAR,64078,37.7051146,-93.7815343,is_bluebook
673,1689,MO,Sullivan,SULLIVAN,63080,38.2253242,-91.1587639,is_bluebook
674,198,MO,Warrenton,WARRENTON,63383,38.840342,-91.228114,is_bluebook
675,2015,MO,Wayland,WAYLAND,63472,40.3963978,-91.5699629,is_bluebook
715,1017,MO,Foristell,FORISTELL,63348,38.8185123,-90.9530626,is_bluebook_one9
717,1212,MO,Villa Ridge,VILLA RIDGE,63089,38.4756705,-90.8511323,is_bluebook_one9
718,58,MO,Pevely,PEVELY,63070,38.2857743,-90.4049713,is_bluebook_one9
768,1430,MO,Kansas City,KANSAS CITY,64120,39.1306808,-94.4968222,is_bluebook
1061,2802,MO,Springfield,SPRINGFIELD,65802,37.2138712,-93.3819605,is_bluebook
1126,3084,MO,Kansas City,KANSAS CITY,64161,39.156365,-94.476425,is_bluebook
1323,4051,MO,Faucett,FAUCETT,64448,39.6003193,-94.7923775,is_bluebook
77,2132,MS,Jackson,JACKSON,39204,32.2733075,-90.1919809,is_bluebook
174,2416,MS,New Albany,NEW ALBANY,38652,34.4677831,-89.0059601,is_bluebook
261,1206,MS,Winona,WINONA,38967,33.4852989,-89.7702939,is_bluebook
388,234,MS,Meridian,MERIDIAN,39307,32.346141,-88.727746,is_bluebook
586,2203,MS,Moss Point,MOSS POINT,39563,30.4382119,-88.5289767,is_bluebook
676,1482,MS,Gulfport,GULFPORT,39503,30.4210474,-89.1381782,is_bluebook
677,2405,MS,Olive Branch,OLIVE BRANCH,38654,34.9285188,-89.7937598,is_bluebook
678,839,MS,Pearl,PEARL,39208,32.2773769,-90.1604368,is_bluebook
1203,3252,MS,Meridian,MERIDIAN,39307,32.3430612,-88.7983735,is_bluebook_one9
964,1293,MT,Hardin,HARDIN,59034,45.742419,-107.5969672,is_licensee
968,2209,MT,Belgrade,BELGRADE,59714,45.7653376,-111.186017,is_licensee
56,2386,NC,Kannapolis,KANNAPOLIS,28083,35.4984885,-80.5608582,is_bluebook
57,541,NC,Mebane,MEBANE,27302,36.0663212,-79.3090185,is_bluebook
58,977,NC,Pleasant Hill,PLEASANT HILL,27866,36.5234054,-77.5871445,is_bluebook
275,153,NC,Charlotte,CHARLOTTE,28206,35.2703819,-80.8382979,is_bluebook
393,171,NC,Waynesville,WAYNESVILLE,28786,35.5723731,-82.9558962,is_bluebook
549,1603,NC,Mount Airy,MOUNT AIRY,27030,36.487533,-80.745476,is_dealer
682,561,NC,Graham,GRAHAM,27258,36.071906,-79.354074,is_bluebook
683,1514,NC,Kenly,KENLY,27542,35.57376,-78.147115,is_bluebook
885,2147,NC,Dunn,DUNN,28334,35.2703411,-78.6153575,is_dealer
900,116,NC,Dunn,DUNN,28334,35.3185759,-78.5750899,is_dealer
1063,2765,NC,Marion,MARION,28752,35.6425406,-82.0401603,is_bluebook
6955,2864,NC,Haw River,HAW RIVER,27258,36.0702193,-79.35111,is_bluebook
6978,2891,NC,Candor,CANDOR,27229,35.2981163,-79.7262529,is_bluebook
6990,2874,NC,Kenly,KENLY,27542,35.5830516,-78.1478473,is_bluebook
6996,2893,NC,Warsaw,WARSAW,28398,34.9945427,-78.1297078,is_bluebook
7937,2897,NC,Mcleansville,MCLEANSVILLE,27301,36.0608993,-79.6621831,is_bluebook
7971,2875,NC,Conover,CONOVER,28613,35.7210856,-81.1891954,is_bluebook
7976,2883,NC,Troutman,TROUTMAN,28166,35.671304,-80.856063,is_bluebook
7983,2898,NC,Salisbury,SALISBURY,28147,35.6125359,-80.5198817,is_bluebook
7996,2856,NC,Monroe,MONROE,28110,35.0511839,-80.618859,is_dealer
489,334,ND,Grand Forks,GRAND FORKS,58201,47.8893225,-97.0918777,is_bluebook
511,2034,ND,Mandan,MANDAN,58554,46.8612425,-101.0100845,is_dealer
550,124,ND,Minot,MINOT,58701,48.22387,-101.350209,is_bluebook
589,2062,ND,Williston,WILLISTON,58801,48.343667,-103.6157939,is_bluebook
684,2189,ND,Beach,BEACH,58621,46.9296709,-104.009434,is_bluebook
685,1151,ND,Fargo,FARGO,58104,46.833604,-96.844738,is_bluebook
978,367,ND,Fargo,FARGO,58102,46.8872,-96.845,unkn
1222,3287,ND,Fargo,FARGO,58102,46.8893218,-96.8359101,is_bluebook_one9
1223,3291,ND,Grand Forks,GRAND FORKS,58206,47.9319193,-97.0955959,is_bluebook_one9
1224,3289,ND,Bismarck,BISMARCK,58501,46.8294984,-100.7293516,is_bluebook_one9
686,279,NE,Gretna,GRETNA,68028,41.09173,-96.2544292,is_bluebook
687,583,NE,North Platte,NORTH PLATTE,69101,41.100851,-100.72662,is_bluebook
901,929,NE,Elm Creek,ELM CREEK,68836,40.6924439,-99.3812254,is_bluebook_one9
902,790,NE,Grand Island,GRAND ISLAND,68801,40.8308267,-98.3807521,is_licensee
904,157,NE,Big Springs,BIG SPRINGS,69122,41.0519437,-102.0686388,is_bluebook
912,2355,NE,Wood River,WOOD RIVER,68883,40.7603434,-98.586556,is_bluebook
896,2284,NH,Bow,BOW,03304,43.1222243,-71.4803757,is_dealer
190,1327,NJ,Hampton,HAMPTON,08827,40.6367631,-74.9678961,is_bluebook
210,1312,NJ,Mahwah,MAHWAH,07430,41.0920661,-74.1557162,is_bluebook
253,489,NJ,Carneys Point,CARNEYS POINT,08069,39.6812843,-75.4792724,is_bluebook
280,1638,NJ,Bloomsbury,BLOOMSBURY,08804,40.659686,-75.072731,is_bluebook
688,1037,NJ,Carneys Point,CARNEYS POINT,08069,39.684636,-75.485705,is_bluebook
880,1643,NJ,Montague,MONTAGUE,07827,41.3496629,-74.6870226,is_dealer
891,1019,NJ,Roxbury,ROXBURY,07852,40.8922488,-74.6861188,is_dealer
1098,2817,NJ,Newark,NEWARK,07105,40.7194025,-74.1246988,is_bluebook
163,1662,NM,Lordsburg,LORDSBURG,88045,32.342371,-108.68129,is_bluebook
266,960,NM,Las Cruces,LAS CRUCES,88005,32.2962613,-106.8106477,is_bluebook
305,1677,NM,Jamestown,JAMESTOWN,87347,35.4806895,-108.432612,is_bluebook
475,2212,NM,Moriarty,MORIARTY,87035,35.0111866,-106.044475,is_bluebook
490,1537,NM,Carlsbad,CARLSBAD,88221,32.3879693,-104.2150923,is_licensee
557,796,NM,Hobbs,HOBBS,88240,32.6976017,-103.1837376,is_bluebook
689,1239,NM,Albuquerque,ALBUQUERQUE,87105,35.0799322,-106.7459478,is_bluebook
690,1682,NM,Lordsburg,LORDSBURG,88045,32.341143,-108.676737,is_bluebook
691,1089,NM,Tucumcari,TUCUMCARI,88401,35.158341,-103.7038892,is_bluebook
976,1699,NM,Hobbs,HOBBS,88240,32.7243,-103.1474,unkn
1070,2804,NM,Santa Rosa,SANTA ROSA,88435,34.946751,-104.651195,is_bluebook
1107,2906,NM,Lovington,LOVINGTON,88260,32.9194,-103.3353,unkn
1118,3091,NM,Clovis,CLOVIS,88101,34.3959959,-103.152634,is_bluebook
1165,3169,NM,Jal,JAL,88252,32.1206112,-103.1885434,is_bluebook
8601,2317,NM,Artesia,ARTESIA,88210,32.8422569,-104.3957636,is_licensee
8603,869,NM,Artesia,ARTESIA,88210,32.872152,-104.401517,is_licensee
8604,1274,NM,Hobbs,HOBBS,88240,32.7004768,-103.1500887,is_licensee
8605,1869,NM,Eunice,EUNICE,88240,32.442783,-103.16189,is_licensee
8658,1633,NM,Hobbs,HOBBS,88240,32.73917,-103.1635279,is_licensee
147,1020,NV,West Wendover,WEST WENDOVER,89883,40.739755,-114.066704,is_bluebook
340,2197,NV,Fernley,FERNLEY,89408,39.6140506,-119.2665807,is_bluebook
341,31,NV,North Las Vegas,NORTH LAS VEGAS,89031,36.2409176,-115.0978909,is_bluebook
387,1735,NV,Carlin,CARLIN,89822,40.7197594,-116.1061739,is_bluebook
485,800,NV,Winnemucca,WINNEMUCCA,89445,40.9313859,-117.8055892,is_bluebook
513,2415,NV,Primm,PRIMM,89019,35.609695,-115.391695,is_dealer
692,182,NV,Wells,WELLS,89835,41.0976715,-114.9577979,is_bluebook
770,404,NV,Winnemucca,WINNEMUCCA,89445,40.9602597,-117.7481952,is_bluebook
966,703,NV,Battle Mountain,BATTLE MOUNTAIN,89820,40.6483271,-116.9435253,is_licensee
1005,2333,NV,Fernley,FERNLEY,89408,39.6150119,-119.2157324,is_bluebook
1171,3193,NV,Mesquite,MESQUITE,89027,36.7830337,-114.1404743,is_dealer
146,1041,NY,Castleton - On - Hudson,CASTLETON - ON - HUDSON,12033,42.4976877,-73.6743628,is_bluebook
322,1119,NY,Bath,BATH,14810,42.3770391,-77.3637829,is_bluebook
380,1008,NY,Liverpool,LIVERPOOL,13088,43.086934,-76.1652131,is_bluebook
394,120,NY,Newburgh,NEWBURGH,12550,41.5203388,-74.1130765,is_bluebook
494,2127,NY,Rotterdam,ROTTERDAM,12306,42.7814304,-74.0288877,is_bluebook
693,680,NY,Pembroke,PEMBROKE,14036,43.0009505,-78.4074113,is_bluebook
1339,4286,NY,Parish,PARISH,13131,43.4583356,-76.1154948,is_one9_dealer
2,1581,OH,Austinburg,AUSTINBURG,44010,41.7854915,-80.8541584,is_bluebook
3,2229,OH,Austintown,AUSTINTOWN,44515,41.1286259,-80.7704942,is_bluebook
4,238,OH,Avon,AVON,44011,41.4653687,-82.0607195,is_bluebook
6,479,OH,Cambridge,CAMBRIDGE,43725,39.9970079,-81.5771654,is_bluebook
8,1549,OH,Circleville,CIRCLEVILLE,43113,39.5580927,-82.9573344,is_bluebook
9,1295,OH,Franklin,FRANKLIN,45005,39.5431073,-84.2903974,is_bluebook
11,2378,OH,North Lima,NORTH LIMA,44452,40.9589085,-80.660263,is_bluebook
12,1522,OH,Perrysburg,PERRYSBURG,43551,41.5227102,-83.462136,is_bluebook
13,2112,OH,Seville,SEVILLE,44273,41.0297493,-81.9068451,is_bluebook
14,718,OH,Sunbury,SUNBURY,43074,40.265454,-82.92396,is_bluebook
15,200,OH,Toledo,TOLEDO,43612,41.7239884,-83.5081257,is_bluebook
16,1789,OH,Wilmington,WILMINGTON,45177,39.5227587,-83.8460173,is_bluebook
97,260,OH,Vandalia,VANDALIA,45377,39.9024473,-84.1925923,is_bluebook
130,168,OH,Richfield,RICHFIELD,44286,41.2761778,-81.6264363,is_bluebook
213,886,OH,Columbus,COLUMBUS,43204,39.9730818,-83.0999218,is_bluebook
239,1259,OH,Upper Sandusky,UPPER SANDUSKY,43351,40.8339377,-83.2454119,is_bluebook
281,1051,OH,Girard,GIRARD,44420,41.1398517,-80.7192765,is_bluebook
285,2404,OH,Hebron,HEBRON,43025,39.945633,-82.536306,is_bluebook
286,251,OH,Eaton,EATON,45320,39.831662,-84.6303185,is_bluebook
287,2026,OH,Burbank,BURBANK,44214,40.9990299,-81.9971929,is_bluebook
303,2184,OH,Napoleon,NAPOLEON,43545,41.4162451,-84.1045652,is_bluebook
309,1207,OH,Caldwell,CALDWELL,43724,39.7374807,-81.5276284,is_bluebook
360,930,OH,Findlay,FINDLAY,45840,41.1368441,-83.6603597,is_bluebook
449,384,OH,Belmont,BELMONT,43718,40.0574066,-81.0507688,is_bluebook
454,1681,OH,London,LONDON,43140,39.958751,-83.370175,is_bluebook
455,2292,OH,Marengo,MARENGO,43334,40.370998,-82.8300652,is_bluebook
457,581,OH,Beaver Dam,BEAVER DAM,45808,40.834367,-83.963977,is_bluebook
469,1750,OH,Canton,CANTON,44706,40.7489577,-81.4035142,is_bluebook
552,2788,OH,Lebanon,LEBANON,45036,39.4120402,-84.149547,is_bluebook
597,972,OH,Chillicothe,CHILLICOTHE,45601,39.3391896,-82.9520292,is_bluebook
694,1891,OH,Austinburg,AUSTINBURG,44010,41.7890496,-80.8557824,is_bluebook
695,2267,OH,Beaverdam,BEAVERDAM,45808,40.832557,-83.966402,is_bluebook
696,1403,OH,Berkshire,BERKSHIRE,43074,40.2677136,-82.9246924,is_bluebook
697,1181,OH,Hubbard,HUBBARD,44425,41.1829335,-80.5705183,is_bluebook
698,592,OH,Jeffersonville,JEFFERSONVILLE,43128,39.6462476,-83.538673,is_bluebook
699,1897,OH,Millersport,MILLERSPORT,43046,39.9427113,-82.5985011,is_bluebook
700,324,OH,Lake Township,LAKE TOWNSHIP,43551,41.5341807,-83.4603323,is_bluebook
732,290,OH,Girard,GIRARD,44420,41.139413,-80.7175934,is_bluebook_one9
1032,3082,OH,Steubenville,STEUBENVILLE,43952,40.3530869,-80.6171839,is_bluebook_one9
196,786,OK,Roland,ROLAND,74954,35.4045913,-94.5217058,is_bluebook
259,1575,OK,Muskogee,MUSKOGEE,74401,35.7849897,-95.4016246,is_bluebook
460,1914,OK,Oklahoma City,OKLAHOMA CITY,73128,35.4618641,-97.6869894,is_bluebook
498,2653,OK,Atoka,ATOKA,74525,34.3646419,-96.1406134,is_bluebook
556,2313,OK,Choctaw,CHOCTAW,73020,35.3904303,-97.2659477,is_dealer
701,2301,OK,Ardmore,ARDMORE,73401,34.2007766,-97.1673255,is_bluebook
702,1095,OK,Checotah,CHECOTAH,74426,35.4756349,-95.5391106,is_bluebook
703,778,OK,Oklahoma City,OKLAHOMA CITY,73128,35.458313,-97.690119,is_bluebook
704,508,OK,Edmond,EDMOND,73013,35.5953297,-97.4368328,is_bluebook
705,964,OK,Sayre,SAYRE,73662,35.2647134,-99.6417911,is_bluebook
706,1667,OK,Tulsa,TULSA,74116,36.1617,-95.8324,is_bluebook
971,1650,OK,El Reno,EL RENO,73036,35.4957,-97.9602,unkn
1004,1686,OK,Tonkawa,TONKAWA,74653,36.696197,-97.34913,is_bluebook
133,1782,OR,Chemult,CHEMULT,97731,43.2153706,-121.7842347,is_bluebook
195,772,OR,Wasco,WASCO,97065,45.6694129,-120.8349037,is_bluebook
232,240,OR,Ontario,ONTARIO,97914,44.0257484,-116.9526279,is_bluebook
233,1543,OR,Oakland,OAKLAND,97462,43.5395013,-123.2889168,is_bluebook
386,411,OR,Brooks,BROOKS,97305,45.0486742,-122.9749448,is_bluebook
390,1598,OR,Stanfield,STANFIELD,97875,45.7659968,-119.2055029,is_bluebook
391,1358,OR,Central Point,CENTRAL POINT,97502,42.3779793,-122.8991123,is_bluebook
504,397,OR,Klamath Falls,KLAMATH FALLS,97601,42.2561132,-121.798748,is_bluebook
584,1674,OR,Aurora,AURORA,97002,45.2334742,-122.8098783,is_bluebook
934,1134,OR,Lagrande,LAGRANDE,97850,45.2975453,-118.0435771,is_bluebook
1226,3496,OR,Biggs Junction,BIGGS JUNCTION,97065,45.6698584,-120.8319732,is_bluebook_one9
1232,3530,OR,Albany,ALBANY,97322,44.5551923,-123.0574333,is_bluebook_one9
1,654,PA,Mill Hall,MILL HALL,17751,41.034113,-77.515056,is_bluebook
81,1947,PA,Portersville,PORTERSVILLE,16051,40.9647475,-80.1397553,is_bluebook
245,2192,PA,Harrisburg,HARRISBURG,17112,40.3516753,-76.7169134,is_bluebook
298,1564,PA,Drums,DRUMS,18222,41.0271936,-76.0798879,is_bluebook
311,2057,PA,Erie,ERIE,16509,42.0700239,-80.0381528,is_bluebook
336,2027,PA,Dubois,DUBOIS,15801,41.1410309,-78.7832148,is_bluebook
348,1395,PA,Bentleyville,BENTLEYVILLE,15314,40.1317519,-80.0008991,is_bluebook
370,268,PA,Pittston,PITTSTON,18640,41.3143216,-75.7551742,is_bluebook
516,807,PA,Breezewood,BREEZEWOOD,15533,39.9986293,-78.2384715,is_licensee
517,917,PA,Duncannon,DUNCANNON,17020,40.4057097,-77.0096058,is_bluebook
518,176,PA,Frystown,FRYSTOWN,17067,40.4630779,-76.3398367,is_bluebook
522,2069,PA,Pine Grove,PINE GROVE,17963,40.5338511,-76.431746,is_dealer
620,2082,PA,Smithton,SMITHTON,15479,40.1705733,-79.7316872,is_bluebook
707,1495,PA,Brookville,BROOKVILLE,15825,41.1724046,-79.0957047,is_bluebook
708,2193,PA,Carlisle,CARLISLE,17013,40.2347806,-77.1233786,is_bluebook
709,252,PA,Mill Hall,MILL HALL,17751,41.0287417,-77.5221839,is_bluebook
710,1728,PA,New Milford,NEW MILFORD,18834,41.8244222,-75.6820808,is_bluebook
1163,3174,PA,Emlenton,EMLENTON,16373,41.1754704,-79.739507,is_dealer
4563,2841,PA,Harrisburg,HARRISBURG,17112,40.352449,-76.7273143,is_bluebook
60,1480,SC,Bowman,BOWMAN,29018,33.4169668,-80.6663708,is_bluebook
61,1504,SC,Clinton,CLINTON,29325,34.5089285,-81.8579788,is_bluebook
62,2240,SC,Florence,FLORENCE,29506,34.2631721,-79.7012871,is_bluebook
63,2279,SC,Piedmont,PIEDMONT,29673,34.7108157,-82.4976933,is_bluebook
64,2238,SC,Summerville,SUMMERVILLE,29483,33.038933,-80.142378,is_bluebook_one9
310,440,SC,Duncan,DUNCAN,29334,34.9150603,-82.1079396,is_bluebook
337,801,SC,Florence,FLORENCE,29501,34.2327643,-79.8021844,is_bluebook
338,2421,SC,Cayce,CAYCE,29033,33.966034,-81.0792947,is_bluebook
346,861,SC,Lugoff,LUGOFF,29078,34.19298,-80.686871,is_bluebook
453,2318,SC,Gaffney,GAFFNEY,29341,35.0780788,-81.7038155,is_bluebook
493,1731,SC,St. George,ST. GEORGE,29477,33.1926438,-80.6017991,is_bluebook
711,1101,SC,Blacksburg,BLACKSBURG,29702,35.1422535,-81.5099515,is_bluebook
712,2312,SC,Columbia,COLUMBIA,29203,34.0647455,-81.0233716,is_bluebook
713,475,SC,Latta,LATTA,29565,34.3402058,-79.5324537,is_bluebook
714,564,SC,Rock Hill,ROCK HILL,29730,34.8562956,-81.0059182,is_bluebook
1068,2798,SC,Summerville,SUMMERVILLE,29483,33.0808936,-80.2108595,is_bluebook
1082,2795,SC,N. Charleston,N. CHARLESTON,29406,32.9033997,-79.9843098,is_bluebook
1331,4045,SC,Cowpens,COWPENS,29330,35.0468969,-81.8123165,is_one9_dealer
4566,2846,SC,Blacksburg,BLACKSBURG,29702,35.166119,-81.4514056,is_bluebook
4567,2894,SC,Rock Hill,ROCK HILL,29730,34.9131979,-80.9795243,is_bluebook
4568,2840,SC,Graniteville,GRANITEVILLE,29829,33.6042059,-81.8408969,is_bluebook
4569,2839,SC,Hardeeville,HARDEEVILLE,29927,32.2688535,-81.0806143,is_bluebook
4576,2889,SC,St. George,ST. GEORGE,29477,33.2693588,-80.5675124,is_bluebook
4578,2882,SC,Winnsboro,WINNSBORO,29180,34.5081743,-81.0009163,is_bluebook
4579,2877,SC,St. Matthews,ST. MATTHEWS,29135,33.6328331,-80.8792944,is_bluebook
4580,2896,SC,Prosperity,PROSPERITY,29127,34.240307,-81.4589682,is_bluebook
4581,2888,SC,Bishopville,BISHOPVILLE,29010,34.1924643,-80.2833077,is_bluebook
4584,2885,SC,Latta,LATTA,29565,34.3450971,-79.5343145,is_bluebook
599,734,SD,Murdo,MURDO,57559,43.8860106,-100.7046741,is_bluebook
716,1996,SD,Sioux Falls,SIOUX FALLS,57107,43.6031305,-96.7671723,is_bluebook
918,560,SD,Rapid City,RAPID CITY,57702,44.1127503,-103.2730747,is_bluebook
931,1075,SD,Rapid City,RAPID CITY,57701,44.1033923,-103.1497245,is_licensee
51,862,TN,Greeneville,GREENEVILLE,37745,36.3205041,-82.8319861,is_bluebook
52,2206,TN,Lavergne,LAVERGNE,37086,35.9978664,-86.5954117,is_bluebook
53,333,TN,Hurricane Mills,HURRICANE MILLS,37078,35.8821886,-87.8018369,is_bluebook
106,1805,TN,Knoxville,KNOXVILLE,37921,35.9578495,-84.0015516,unkn
114,465,TN,Crossville,CROSSVILLE,38571,35.9858731,-85.0115463,is_bluebook
132,1152,TN,Kingston,KINGSTON,37763,35.874325,-84.4591591,unkn
149,2233,TN,Stanton,STANTON,38069,35.3901017,-89.4106601,is_bluebook
219,224,TN,Knoxville,KNOXVILLE,37914,35.9991982,-83.7780005,is_bluebook
226,1187,TN,Dandridge,DANDRIDGE,37725,36.037557,-83.444998,is_bluebook
241,622,TN,Knoxville,KNOXVILLE,37914,35.9604878,-83.8232321,unkn
265,1326,TN,Cookeville,COOKEVILLE,38501,36.1336945,-85.504192,is_bluebook
270,661,TN,Knoxville,KNOXVILLE,37934,35.90363,-84.140551,is_bluebook
366,146,TN,Jackson,JACKSON,38305,35.682591,-88.7771176,is_bluebook
403,2141,TN,Heiskell,HEISKELL,37754,36.1110773,-84.0201393,is_bluebook
404,892,TN,Murfreesboro,MURFREESBORO,37127,35.8078671,-86.3967846,is_bluebook
406,2402,TN,Cornersville,CORNERSVILLE,37047,35.3053066,-86.8840857,is_bluebook
409,1998,TN,Dickson,DICKSON,37055,36.0228843,-87.3407382,is_bluebook
411,842,TN,Lebanon,LEBANON,37090,36.1791753,-86.2994386,is_bluebook
412,586,TN,White Pine,WHITE PINE,37890,36.1089731,-83.3340946,is_bluebook
413,667,TN,Nashville,NASHVILLE,37209,36.1722647,-86.8652182,unkn
481,992,TN,Cleveland,CLEVELAND,37353,35.1527711,-84.9529946,is_bluebook
720,1640,TN,Fairview,FAIRVIEW,37062,36.0270605,-87.1717159,is_bluebook
722,1771,TN,Knoxville,KNOXVILLE,37932,35.881901,-84.2352486,is_bluebook
985,218,TN,Nashville,NASHVILLE,37210,36.1582,-86.7385,unkn
1577,2835,TN,Pioneer,PIONEER,37847,36.3763272,-84.2477677,is_bluebook
4596,2873,TN,White Pine,WHITE PINE,37890,36.108566,-83.339187,is_bluebook
4597,2881,TN,Gordonsville,GORDONSVILLE,38563,36.177095,-85.9493688,is_bluebook
4598,2848,TN,Niota,NIOTA,37826,35.544914,-84.565053,is_bluebook
4599,2851,TN,Monteagle,MONTEAGLE,37356,35.2329417,-85.825516,is_bluebook
157,588,TX,Sulphur Springs,SULPHUR SPRINGS,75482,33.1535461,-95.6171026,is_bluebook
206,527,TX,Weatherford,WEATHERFORD,76087,32.7273607,-97.8244224,is_bluebook
209,35,TX,Van Horn,VAN HORN,79855,31.0359358,-104.8299453,is_bluebook
234,876,TX,Huntsville,HUNTSVILLE,77320,30.7375115,-95.5941624,is_bluebook
257,1664,TX,Midland,MIDLAND,79706,31.9152892,-102.214678,is_bluebook
306,808,TX,San Antonio,SAN ANTONIO,78219,29.4399895,-98.3800829,is_bluebook
330,2275,TX,New Braunfels,NEW BRAUNFELS,78132,29.6763864,-98.156077,is_bluebook
367,1470,TX,Caddo Mills,CADDO MILLS,75135,33.0434098,-96.1780357,is_bluebook
375,2140,TX,Houston,HOUSTON,77013,29.8002384,-95.2676262,is_bluebook
377,2065,TX,Laredo,LAREDO,78045,27.6840919,-99.4615356,is_bluebook
431,2368,TX,Orange,ORANGE,77630,30.1121468,-93.821917,is_bluebook
432,1351,TX,Robinson,ROBINSON,76706,31.4555058,-97.1710605,is_bluebook
433,1615,TX,Dallas,DALLAS,75241,32.6421053,-96.7802795,is_bluebook
434,353,TX,Fort Worth,FORT WORTH,76177,32.9578779,-97.3075292,is_bluebook
435,2243,TX,Anthony,ANTHONY,79821,31.9966221,-106.5863425,is_bluebook
436,706,TX,Amarillo,AMARILLO,79118,35.1963064,-101.7412696,is_bluebook
467,467,TX,San Antonio,SAN ANTONIO,78264,29.2195747,-98.4150727,is_bluebook
472,2630,TX,Beasley,BEASLEY,77417,29.4955037,-95.9113797,is_bluebook
477,104,TX,Anna,ANNA,75409,33.344772,-96.588958,is_bluebook
486,1809,TX,Tyler,TYLER,75706,32.450417,-95.283802,is_bluebook
488,1376,TX,Cotulla,COTULLA,78014,28.4525161,-99.2381108,is_bluebook
507,1938,TX,Jarrell,JARRELL,76537,30.8112888,-97.6114641,is_dealer
551,1027,TX,Cisco,CISCO,76437,32.3730578,-99.0085064,is_dealer
553,1068,TX,Fort Stockton,FORT STOCKTON,79735,30.9055432,-102.8854665,is_bluebook
554,177,TX,George West,GEORGE WEST,78022,28.3368992,-98.0241893,is_bluebook
559,2050,TX,Big Spring,BIG SPRING,79720,32.2656585,-101.4747176,is_bluebook
568,821,TX,Von Ormy,VON ORMY,78073,29.2798988,-98.6693803,is_bluebook
573,3104,TX,Hempstead,HEMPSTEAD,77445,30.1087897,-96.0473131,is_bluebook
580,1190,TX,Odessa,ODESSA,79766,31.8644705,-102.3023903,is_bluebook
723,999,TX,Amarillo,AMARILLO,79118,35.194246,-101.723823,is_bluebook
724,1703,TX,Anthony,ANTHONY,79821,31.9968529,-106.5799931,is_bluebook
725,1092,TX,Baytown,BAYTOWN,77521,29.7950065,-95.0333801,is_bluebook
726,1580,TX,Dallas,DALLAS,75241,32.6563406,-96.751072,is_bluebook
727,337,TX,Edinburg,EDINBURG,78539,26.3352316,-98.1436867,is_bluebook
728,235,TX,El Paso,EL PASO,79928,31.659032,-106.2413583,is_bluebook
729,341,TX,Houston,HOUSTON,77090,29.9992162,-95.4276477,is_bluebook
730,626,TX,Laredo,LAREDO,78045,27.6854486,-99.4659855,is_bluebook
733,733,TX,Lubbock,LUBBOCK,79401,33.593342,-101.8412536,is_bluebook
734,282,TX,New Caney,NEW CANEY,77357,30.1927056,-95.1933173,is_bluebook
735,1271,TX,Orange,ORANGE,77630,30.1166703,-93.8198823,is_bluebook
736,1392,TX,Pecos,PECOS,79772,31.401153,-103.485879,is_bluebook
737,1125,TX,San Antonio,SAN ANTONIO,78244,29.4467458,-98.3621801,is_bluebook
738,1228,TX,Tye,TYE,79563,32.461697,-99.872525,is_bluebook
739,770,TX,Waco,WACO,76711,31.507981,-97.1450042,is_bluebook
740,498,TX,Brookshire,BROOKSHIRE,77423,29.780082,-95.9522831,is_bluebook
741,558,TX,Wichita Falls,WICHITA FALLS,76301,33.8901543,-98.4828275,is_bluebook
883,1024,TX,Canton,CANTON,75103,32.5432583,-95.7555652,is_dealer
887,450,TX,Snyder,SNYDER,79549,32.7054364,-100.8662822,is_dealer
888,480,TX,Tulia,TULIA,79088,34.528159,-101.798535,is_dealer
894,1834,TX,Eagle Pass,EAGLE PASS,78852,28.709762,-100.46364,is_dealer
990,1885,TX,Midland,MIDLAND,79760,31.9434,-102.1665,unkn
994,1382,TX,Von Ormy,VON ORMY,78073,29.319,-98.6212,unkn
1001,1539,TX,Big Lake,BIG LAKE,76932,31.1911816,-101.4512931,is_bluebook
1002,8,TX,Tilden,TILDEN,78072,28.4715408,-98.5469655,is_bluebook
1003,572,TX,Childress,CHILDRESS,79201,34.4351558,-100.2307492,is_bluebook
1006,1655,TX,Junction,JUNCTION,76849,30.5059984,-99.7767833,is_bluebook
1022,2528,TX,Wheeler,WHEELER,79096,35.4498,-100.1111,unkn
1023,2604,TX,Lufkin,LUFKIN,75901,31.3178073,-94.6985369,is_bluebook
1025,2648,TX,Channelview,CHANNELVIEW,77530,29.7711967,-95.1256427,is_bluebook
1026,2627,TX,Carrizo Springs,CARRIZO SPRINGS,78834,28.5108222,-99.8479733,is_bluebook
1027,2674,TX,Vega,VEGA,79092,35.2353043,-102.4284995,is_bluebook
1028,2618,TX,Buffalo,BUFFALO,75831,31.4485284,-96.0786668,is_bluebook
1033,2629,TX,Midland,MIDLAND,79706,31.9799092,-102.0336302,is_bluebook
1054,2715,TX,Mustang Ridge,MUSTANG RIDGE,78610,30.0346471,-97.6869824,is_bluebook
1057,2675,TX,Pasadena,PASADENA,77506,29.714247,-95.1965181,is_bluebook
1059,2708,TX,Schulenburg,SCHULENBURG,78956,29.694887,-96.902387,is_bluebook
1083,2809,TX,Stratford,STRATFORD,79084,36.33149,-102.072954,is_bluebook
1108,3086,TX,Grand Prairie,GRAND PRAIRIE,76155,32.8018754,-97.0303962,is_bluebook_one9
1134,3143,TX,Orla,ORLA,79770,31.8256018,-103.9092603,is_bluebook
1135,3123,TX,Falfurrias,FALFURRIAS,78355,27.2119283,-98.1417077,is_bluebook
1140,3111,TX,Rhome,RHOME,76078,33.1004149,-97.4703761,is_bluebook
1143,3160,TX,Odessa,ODESSA,79764,31.8762742,-102.4223668,is_bluebook
1145,3276,TX,Midland,MIDLAND,79707,31.9675299,-102.252189,is_bluebook
1146,3142,TX,Pecos,PECOS,79772,31.4008615,-103.520763,is_bluebook
1147,3146,TX,Kermit,KERMIT,79745,31.8457163,-103.090929,is_bluebook
1161,3165,TX,Odessa,ODESSA,79766,31.7846503,-102.4774377,is_bluebook
1205,3277,TX,Monahans,MONAHANS,79756,31.5767385,-102.8859939,is_bluebook
1206,3278,TX,Kermit,KERMIT,79745,31.8531568,-103.0683492,is_bluebook
1207,3232,TX,Monahans,MONAHANS,79756,31.5895253,-102.9180303,is_bluebook
1209,3309,TX,Midland,MIDLAND,79706,31.9685175,-102.0731824,is_bluebook
1211,3380,TX,Andrews,ANDREWS,79714,32.3071262,-102.5422173,is_bluebook
1227,3503,TX,Pyote,PYOTE,79777,31.5348555,-103.1262722,is_bluebook
1247,3499,TX,New Boston,NEW BOSTON,75570,33.4698317,-94.4542724,is_dealer
1248,3679,TX,Wilmer,WILMER,75172,32.5912474,-96.680529,is_one9_dealer
1262,3502,TX,Clint,CLINT,79836,31.5923733,-106.2241879,is_bluebook_one9
1282,3560,TX,Terrell,TERRELL,75160,32.723163,-96.3182874,is_one9_dealer
1284,3558,TX,Nash,NASH,75569,33.4519118,-94.1315437,is_dealer
1285,3683,TX,Santo,SANTO,76472,32.6154694,-98.1085154,is_one9_dealer
1290,3569,TX,Red Oak,RED OAK,75154,32.5164666,-96.8212183,is_one9_dealer
1292,4266,TX,Paige,PAIGE,78659,30.2149445,-97.1350153,is_dealer
1293,3568,TX,Garland,GARLAND,75043,32.85485,-96.5611576,is_one9_dealer
1295,3561,TX,Tyler,TYLER,75708,32.4407652,-95.1365288,is_one9_dealer
1297,3571,TX,Italy,ITALY,76651,32.1975812,-96.8999525,is_dealer
1299,3559,TX,Henrietta,HENRIETTA,76365,33.8004525,-98.1961772,is_dealer
1300,3570,TX,Ennis,ENNIS,75119,32.3018181,-96.6383208,is_one9_dealer
1303,3572,TX,Palestine,PALESTINE,75801,31.743479,-95.656113,is_dealer
1304,3562,TX,Fort Worth,FORT WORTH,76106,32.8418309,-97.3422565,is_one9_dealer
1305,3566,TX,Pleasanton,PLEASANTON,78064,28.911582,-98.462654,unkn
1306,3565,TX,Floresville,FLORESVILLE,78114,29.230126,-98.054406,unkn
1320,3774,TX,Waxahachie,WAXAHACHIE,75167,32.427225,-96.8736197,is_one9_dealer
1334,3989,TX,Valley View,VALLEY VIEW,76272,33.4882002,-97.1624616,is_one9_dealer
1338,4053,TX,Jarrell,JARRELL,76537,30.8385199,-97.5988195,is_one9_dealer
1344,4055,TX,Fort Worth,FORT WORTH,76126,32.6924684,-97.518421,is_one9_dealer
8612,391,TX,Seminole,SEMINOLE,79360,32.719509,-102.65446,is_licensee
8616,1645,TX,Andrews,ANDREWS,79714,32.31284,-102.567507,is_licensee
8621,865,TX,Midland,MIDLAND,79701,31.9842608,-102.0427991,is_licensee
8624,1227,TX,Odessa,ODESSA,79764,31.8734268,-102.4253805,is_licensee
8625,464,TX,Odessa,ODESSA,79761,31.8452014,-102.3406382,is_licensee
8628,191,TX,Big Spring,BIG SPRING,79721,32.281973,-101.497157,is_licensee
8630,2073,TX,Crane,CRANE,79731,31.4071838,-102.3487394,is_licensee
8637,2130,TX,Ozona,OZONA,76950,30.7003397,-101.2065504,is_licensee
8638,740,TX,Sonora,SONORA,76950,30.562291,-100.647533,is_licensee
8642,1923,TX,Kilgore,KILGORE,75662,32.3980835,-94.8967656,is_licensee
109,701,UT,Vernal,VERNAL,84078,40.433703,-109.499531,is_licensee
140,569,UT,Roosevelt,ROOSEVELT,84066,40.2944684,-109.9891828,is_dealer
294,1969,UT,Ogden,OGDEN,84404,41.2453719,-112.0193656,is_bluebook_one9
509,195,UT,Beaver,BEAVER,84713,38.2932704,-112.653177,is_dealer
510,86,UT,Scipio,SCIPIO,84656,39.2554345,-112.1171547,is_dealer
742,278,UT,Lake Point,LAKE POINT,84074,40.6861094,-112.2671304,is_bluebook
743,864,UT,Nephi,NEPHI,84648,39.685639,-111.8364249,is_bluebook
744,761,UT,Ogden,OGDEN,84401,41.231031,-112.0084148,is_bluebook
746,1493,UT,Salt Lake City,SALT LAKE CITY,84119,40.7262614,-111.9159907,is_bluebook
747,1158,UT,Springville,SPRINGVILLE,84663,40.1874931,-111.6409511,is_bluebook
748,1363,UT,Willard,WILLARD,84340,41.4237447,-112.0517947,is_bluebook
772,570,UT,North Salt Lake,NORTH SALT LAKE,84054,40.836487,-111.934094,is_bluebook
773,653,UT,Richfield,RICHFIELD,84701,38.7887531,-112.0822995,is_bluebook
774,2406,UT,Snowville,SNOWVILLE,84336,41.9635939,-112.7095853,is_bluebook
775,2067,UT,St. George,ST. GEORGE,84790,37.0596956,-113.5819903,is_bluebook
892,530,UT,Green River,GREEN RIVER,84525,38.9959456,-110.1480304,is_dealer
159,222,VA,Providence Forge,PROVIDENCE FORGE,23140,37.4999867,-77.0894073,is_bluebook
256,1719,VA,Danville,DANVILLE,24541,36.5824614,-79.3542561,is_bluebook
258,1460,VA,Troutville,TROUTVILLE,24175,37.3888327,-79.9008157,is_bluebook_one9
384,216,VA,Colonial Heights,COLONIAL HEIGHTS,23834,37.3108667,-77.3915178,is_bluebook
396,2093,VA,Staunton,STAUNTON,24401,38.0198781,-79.141011,is_bluebook
491,1329,VA,Harrisonburg,HARRISONBURG,22802,38.4801317,-78.8184653,is_bluebook
749,546,VA,Carmel Church,CARMEL CHURCH,22546,37.9333641,-77.4726449,is_bluebook
750,1553,VA,Fort Chiswell,FORT CHISWELL,24360,36.9452177,-80.9456831,is_bluebook
752,287,VA,Winchester,WINCHESTER,22624,39.290032,-78.0872148,is_bluebook
753,96,VA,Ruther Glen,RUTHER GLEN,22546,37.9395699,-77.46585,is_bluebook_one9
754,241,VA,Wytheville,WYTHEVILLE,24382,36.9355422,-80.9921741,is_bluebook
876,1103,VA,Ruther Glen,RUTHER GLEN,22546,37.9393927,-77.4685057,is_bluebook
898,1301,VA,Emporia,EMPORIA,23847,36.7045565,-77.5530073,is_dealer
899,1050,VA,South Hill,SOUTH HILL,23970,36.7108505,-78.1088229,is_dealer
1049,3095,VA,Suffolk,SUFFOLK,23434,36.7142958,-76.670067,is_dealer
2867,2444,VA,Alexandria,ALEXANDRIA,22302,38.8432066,-77.1113466,is_dealer
2868,2473,VA,Alexandria,ALEXANDRIA,22303,38.7963095,-77.082011,is_dealer
2869,2475,VA,Hybla Valley,HYBLA VALLEY,22306,38.7518743,-77.0836166,is_dealer
2870,2454,VA,Annandale,ANNANDALE,22003,38.8301578,-77.1905236,is_dealer
2871,2470,VA,Alexandria,ALEXANDRIA,22314,38.7989385,-77.0513849,is_dealer
2874,2445,VA,Richmond,RICHMOND,23234,37.4613756,-77.4422066,is_dealer
4617,2477,VA,Galax,GALAX,24333,36.6709566,-80.9179438,is_dealer
4618,2438,VA,Wytheville,WYTHEVILLE,24382,36.936112,-80.995368,is_dealer
4619,2484,VA,Wytheville,WYTHEVILLE,24382,36.9388426,-80.9918235,is_bluebook
4620,2458,VA,Radford,RADFORD,24141,37.1263811,-80.5861302,is_dealer
4621,2494,VA,Radford,RADFORD,24141,37.14289,-80.5791351,is_dealer
4622,2472,VA,South Boston,SOUTH BOSTON,24592,36.675295,-78.927745,is_bluebook
4623,2440,VA,Halifax,HALIFAX,24558,36.7606719,-78.9273631,is_dealer
4624,2466,VA,Pulaski,PULASKI,24301,37.0483937,-80.7682478,is_dealer
4625,2489,VA,Christiansburg,CHRISTIANSBURG,24073,37.1307507,-80.4034176,is_dealer
4626,2464,VA,Blacksburg,BLACKSBURG,24060,37.1774703,-80.4170774,is_dealer
4627,2468,VA,Blacksburg,BLACKSBURG,24060,37.2013014,-80.3990913,is_dealer
4628,2497,VA,Blacksburg,BLACKSBURG,24060,37.2371612,-80.4213374,is_dealer
4629,2499,VA,Bassett,BASSETT,24055,36.7439594,-79.936527,is_dealer
4630,2495,VA,Ridgeway,RIDGEWAY,24148,36.6282753,-79.8589517,is_dealer
4631,2501,VA,Bassett,BASSETT,24055,36.7476362,-79.9371522,is_dealer
4632,2483,VA,Danville,DANVILLE,24540,36.5817282,-79.3492815,is_dealer
4633,2467,VA,Roanoke,ROANOKE,24012,37.2898164,-79.9102789,is_dealer
4634,2456,VA,Roanoke,ROANOKE,24018,37.225702,-80.011377,is_dealer
4635,2491,VA,Salem,SALEM,24153,37.2790263,-80.0348596,is_dealer
4636,2474,VA,Lynchburg,LYNCHBURG,24501,37.3964179,-79.2242953,is_dealer
4637,2502,VA,Lynchburg,LYNCHBURG,24502,37.3499302,-79.2306453,is_dealer
4638,2480,VA,Madison Heights,MADISON HEIGHTS,24572,37.4503492,-79.1211712,is_dealer
4639,2498,VA,Lynchburg,LYNCHBURG,24502,37.3601349,-79.181284,is_dealer
4640,2507,VA,Lynchburg,LYNCHBURG,24501,37.3813679,-79.1356042,is_dealer
4641,2482,VA,Harrisonburg,HARRISONBURG,22801,38.4326788,-78.8830021,is_dealer
4642,2496,VA,Tom'S Brook,TOM'S BROOK,22660,38.967294,-78.4375217,is_bluebook
4643,2451,VA,Front Royal,FRONT ROYAL,22630,38.9119457,-78.1844307,is_dealer
4644,2449,VA,Front Royal,FRONT ROYAL,22630,38.937564,-78.1995012,is_dealer
4645,2448,VA,Vinton,VINTON,24179,37.2745756,-79.8943039,is_dealer
4647,2476,VA,Waynesboro,WAYNESBORO,22980,38.0800735,-78.9230562,is_dealer
4648,2453,VA,Waynesboro,WAYNESBORO,22980,38.0662847,-78.8775154,is_dealer
4649,2490,VA,Raphine,RAPHINE,24472,37.9323785,-79.2325783,is_bluebook
4650,2439,VA,Staunton,STAUNTON,24401,38.1413131,-79.0508823,is_dealer
4651,2504,VA,Skippers,SKIPPERS,23879,36.6070401,-77.5608719,is_bluebook
4652,2460,VA,Charlottesville,CHARLOTTESVILLE,22911,38.03418,-78.4562117,is_dealer
4653,2459,VA,Charlottesville,CHARLOTTESVILLE,22901,38.0971251,-78.4636863,is_dealer
4654,2452,VA,Charlottesville,CHARLOTTESVILLE,22901,38.0805908,-78.4755275,is_dealer
4656,2457,VA,Disputanta,DISPUTANTA,23842,37.1846475,-77.3182374,is_bluebook
4657,2442,VA,Virginia Beach,VIRGINIA BEACH,23455,36.8700882,-76.1466316,is_dealer
4658,2485,VA,Virginia Beach,VIRGINIA BEACH,23464,36.8116331,-76.2028023,is_dealer
4663,2469,VA,Williamsburg,WILLIAMSBURG,23185,37.2725356,-76.6817413,is_dealer
4664,2465,VA,Williamsburg,WILLIAMSBURG,23185,37.3044481,-76.7294956,is_dealer
4666,2488,VA,Gloucester Point,GLOUCESTER POINT,23062,37.2551017,-76.4970143,is_dealer
4667,2500,VA,Chesapeake,CHESAPEAKE,23321,36.8653292,-76.4090096,is_dealer
4668,2481,VA,Chesapeake,CHESAPEAKE,23321,36.82526,-76.403502,is_dealer
4676,2493,VA,Suffolk,SUFFOLK,23434,36.6894503,-76.6088904,is_dealer
151,1900,WA,Tumwater,TUMWATER,98512,46.9532331,-122.9349035,is_bluebook
583,2213,WA,Ferndale,FERNDALE,98248,48.8484155,-122.5733064,is_bluebook
963,781,WA,Spokane,SPOKANE,99224,47.6206104,-117.5069616,is_licensee
965,1304,WA,Ellensburg,ELLENSBURG,98926,46.9707317,-120.5368689,is_licensee
967,371,WA,Spokane,SPOKANE,99212,47.6631405,-117.3160542,is_licensee
970,1587,WA,Pasco,PASCO,99301,46.2622806,-119.0818179,is_licensee
1103,3127,WA,Arlington,ARLINGTON,98223,48.1876221,-122.1960685,is_bluebook
1169,3163,WA,Tumwater,TUMWATER,98512,46.9520311,-122.9404672,is_bluebook
1173,3176,WA,Tacoma,TACOMA,98421,47.242034,-122.4120547,is_bluebook
1195,3494,WA,Ellensburg,ELLENSBURG,98926,47.0053641,-120.5866212,is_bluebook
1341,4110,WA,Arlington,ARLINGTON,98223,48.18815,-122.2061599,is_one9_dealer
40,2151,WI,Oak Creek,OAK CREEK,53154,42.8718696,-87.9440761,is_bluebook
164,1972,WI,Mauston,MAUSTON,53948,43.7971868,-90.0508139,is_bluebook
289,1509,WI,Beloit,BELOIT,53511,42.5267409,-88.9797325,is_bluebook
324,1115,WI,Franksville,FRANKSVILLE,53126,42.7793834,-87.9518404,is_bluebook
470,316,WI,Roberts,ROBERTS,54023,44.963033,-92.560495,is_bluebook
756,1670,WI,Black River Falls,BLACK RIVER FALLS,54615,44.2944349,-90.8569491,is_bluebook
243,1455,WV,Nitro,NITRO,25143,38.4435533,-81.8307863,is_bluebook
474,232,WV,Sutton,SUTTON,26601,38.7051861,-80.6642072,is_bluebook
503,771,WV,Morgantown,MORGANTOWN,26508,39.5386137,-79.9944183,is_bluebook
102,2359,WY,Rock Springs,ROCK SPRINGS,82901,41.617623,-109.2344761,is_licensee
141,528,WY,Evanston,EVANSTON,82930,41.2689143,-110.9408948,is_bluebook
308,2070,WY,Laramie,LARAMIE,82072,41.3271713,-105.6104859,is_bluebook
402,1033,WY,Cheyenne,CHEYENNE,82007,41.1363693,-104.7067523,is_bluebook
758,968,WY,Casper,CASPER,82609,42.8518741,-106.269591,is_bluebook
759,1561,WY,Cheyenne,CHEYENNE,82007,41.0979761,-104.8542335,is_bluebook
760,2424,WY,Cokeville,COKEVILLE,83114,42.0871802,-110.9475792,is_bluebook
761,1346,WY,Evanston,EVANSTON,82930,41.2648011,-110.9778067,is_bluebook
762,301,WY,Gillette,GILLETTE,82718,44.2773512,-105.4952757,is_bluebook
763,2287,WY,Rawlins,RAWLINS,82301,41.777686,-107.311169,is_bluebook
764,934,WY,Rock Springs,ROCK SPRINGS,82901,41.6083717,-109.2307447,is_bluebook
